{"results":[{"zip":"60123","lon":"-88.30999755859375","photo_url":"","link":"http:\/\/www.meetup.com\/members\/2405971","state":"IL","country":"us","city":"Elgin","visited":"Fri Mar 20 01:06:09 EDT 2009","id":"2405971","joined":"Fri Mar 20 01:06:09 EDT 2009","bio":"","name":"Adam","lat":"42.040000915527344"},{"zip":"30305","lon":"-84.38999938964844","photo_url":"","link":"http:\/\/www.meetup.com\/members\/9457499","state":"GA","country":"us","city":"Atlanta","visited":"Tue Aug 18 14:46:09 EDT 2009","id":"9457499","joined":"Mon Aug 17 10:20:24 EDT 2009","bio":"","name":"Adam","lat":"33.83000183105469"},{"zip":"60607","lon":"-87.6500015258789","photo_url":"","link":"http:\/\/www.meetup.com\/members\/8333968","state":"IL","country":"us","city":"Chicago","visited":"Tue Oct 27 12:56:43 EDT 2009","id":"8333968","joined":"Mon Sep 21 22:09:02 EDT 2009","bio":"","name":"Adam Childs","lat":"41.880001068115234"},{"zip":"60614","lon":"-87.6500015258789","photo_url":"","link":"http:\/\/www.meetup.com\/members\/8722363","state":"IL","country":"us","city":"Chicago","visited":"Mon Oct 05 13:13:45 EDT 2009","id":"8722363","joined":"Wed Jan 21 18:48:09 EST 2009","bio":"","name":"Adam Johnson","lat":"41.91999816894531"},{"zip":"60077","lon":"-87.76000213623047","photo_url":"http:\/\/photos1.meetupstatic.com\/photos\/member\/1\/1\/e\/5\/member_5662581.jpeg","link":"http:\/\/www.meetup.com\/members\/2276849","state":"IL","country":"us","city":"Skokie","visited":"Mon Mar 12 20:30:57 EDT 2007","id":"2276849","joined":"Fri Feb 02 21:41:57 EST 2007","bio":"","name":"Adam T","lat":"42.029998779296875"},{"zip":"60622","lon":"-87.66999816894531","photo_url":"http:\/\/photos1.meetupstatic.com\/photos\/member\/1\/1\/e\/6\/member_7312582.jpeg","link":"http:\/\/www.meetup.com\/members\/7849468","state":"IL","country":"us","city":"Chicago","visited":"Wed Oct 21 11:58:28 EDT 2009","id":"7849468","joined":"Thu Aug 14 12:13:28 EDT 2008","bio":"Recently moved to Chicago and looking to get involved with the Ruby on Rails community","name":"Adam Walters","lat":"41.900001525878906"},{"zip":"35205","lon":"-86.80000305175781","photo_url":"","link":"http:\/\/www.meetup.com\/members\/2027478","state":"AL","country":"us","city":"Birmingham","visited":"Thu Mar 05 16:56:45 EST 2009","id":"2027478","joined":"Thu Mar 05 16:56:45 EST 2009","bio":"Stay in the loop about RoR.","name":"Ahmed Arsalan","lat":"33.5"},{"zip":"30308","lon":"-84.37999725341797","photo_url":"http:\/\/photos1.meetupstatic.com\/photos\/member\/a\/f\/3\/member_7112803.jpeg","link":"http:\/\/www.meetup.com\/members\/9814763","state":"GA","country":"us","city":"Atlanta","visited":"Sun Jul 05 02:58:55 EDT 2009","id":"9814763","joined":"Mon Jun 22 16:40:28 EDT 2009","bio":"","name":"AJ Archibald","lat":"33.77000045776367"},{"zip":"60640","lon":"-87.66999816894531","photo_url":"http:\/\/photos1.meetupstatic.com\/photos\/member\/2\/4\/e\/member_1032590.jpeg","link":"http:\/\/www.meetup.com\/members\/2704868","state":"IL","country":"us","city":"Chicago","visited":"Thu Oct 29 01:43:54 EDT 2009","id":"2704868","joined":"Thu Oct 29 01:43:54 EDT 2009","bio":"","name":"Alan Bailey","lat":"41.970001220703125"},{"zip":"60453","lon":"-87.76000213623047","photo_url":"","link":"http:\/\/www.meetup.com\/members\/7762556","state":"IL","country":"us","city":"Oak Lawn","visited":"Fri Aug 01 11:56:35 EDT 2008","id":"7762556","joined":"Fri Aug 01 11:56:35 EDT 2008","bio":"","name":"Alasdair Sinclair","lat":"41.709999084472656"},{"zip":"60637","lon":"-87.5999984741211","photo_url":"","link":"http:\/\/www.meetup.com\/members\/9646460","state":"IL","country":"us","city":"Chicago","visited":"Sat Oct 24 10:58:12 EDT 2009","id":"9646460","joined":"Thu May 28 13:59:35 EDT 2009","bio":"","name":"Alden Arzaga","lat":"41.779998779296875"},{"zip":"60606","lon":"-87.63999938964844","photo_url":"http:\/\/photos1.meetupstatic.com\/photos\/member\/7\/c\/6\/member_7915990.jpeg","link":"http:\/\/www.meetup.com\/members\/10639296","state":"IL","country":"us","city":"Chicago","visited":"Fri Oct 23 18:16:24 EDT 2009","id":"10639296","joined":"Thu Oct 15 14:33:06 EDT 2009","bio":"","name":"Alec Hipshear","lat":"41.880001068115234"},{"zip":"52240","lon":"-91.52999877929688","photo_url":"","link":"http:\/\/www.meetup.com\/members\/6804494","state":"IA","country":"us","city":"Iowa City","visited":"Tue Jun 09 23:50:37 EDT 2009","id":"6804494","joined":"Sun Mar 23 23:09:09 EDT 2008","bio":"","name":"Aleksandr Furmanov","lat":"41.65999984741211"},{"zip":"60606","lon":"-87.63999938964844","photo_url":"","link":"http:\/\/www.meetup.com\/members\/3333520","state":"IL","country":"us","city":"Chicago","visited":"Fri Jul 18 10:24:21 EDT 2008","id":"3333520","joined":"Sun Oct 22 12:29:22 EDT 2006","bio":"I manage several teams in different areas, and one of them in a team of strong RoR developers, so I could consult you if any issues arise.","name":"Alex","lat":"41.880001068115234"},{"zip":"60610","lon":"-87.63999938964844","photo_url":"","link":"http:\/\/www.meetup.com\/members\/8433164","state":"IL","country":"us","city":"Chicago","visited":"Sat Mar 21 15:56:48 EDT 2009","id":"8433164","joined":"Fri Jan 16 22:16:47 EST 2009","bio":"","name":"Alex","lat":"41.900001525878906"},{"zip":"60640","lon":"-87.66999816894531","photo_url":"http:\/\/photos1.meetupstatic.com\/photos\/member\/9\/f\/7\/member_7748551.jpeg","link":"http:\/\/www.meetup.com\/members\/9034337","state":"IL","country":"us","city":"Chicago","visited":"Fri Oct 30 21:22:43 EDT 2009","id":"9034337","joined":"Wed Apr 22 23:23:23 EDT 2009","bio":"","name":"Alex Kovar","lat":"41.970001220703125"},{"zip":"60604","lon":"-87.62999725341797","photo_url":"http:\/\/photos1.meetupstatic.com\/photos\/member\/1\/5\/1\/c\/member_5657404.jpeg","link":"http:\/\/www.meetup.com\/members\/8690977","state":"IL","country":"us","city":"Chicago","visited":"Sat Jul 18 20:40:02 EDT 2009","id":"8690977","joined":"Thu Jan 22 23:51:31 EST 2009","bio":"","name":"Alex Le","lat":"41.880001068115234"},{"zip":"60126","lon":"-87.94000244140625","photo_url":"http:\/\/photos1.meetupstatic.com\/photos\/member\/a\/e\/e\/member_3122798.jpeg","link":"http:\/\/www.meetup.com\/members\/6093501","state":"IL","country":"us","city":"Elmhurst","visited":"Tue Aug 18 18:30:25 EDT 2009","id":"6093501","joined":"Wed Jan 09 19:28:06 EST 2008","bio":"Experienced web developer and proud female geek, newly discovered the wonderful brevity and expressiveness of Ruby, looking to geek-out and network.","name":"Alexa D","lat":"41.88999938964844"},{"zip":"60601","lon":"-87.62999725341797","photo_url":"http:\/\/photos1.meetupstatic.com\/photos\/member\/1\/a\/e\/member_2208430.jpeg","link":"http:\/\/www.meetup.com\/members\/4256612","state":"IL","country":"us","city":"Chicago","visited":"Thu Jul 26 01:44:00 EDT 2007","id":"4256612","joined":"Sat May 26 01:22:10 EDT 2007","bio":"Founder of PayScroll.com - Ruby and Rails evangelist","name":"Alfred Toh","lat":"41.88999938964844"},{"zip":"94117","lon":"-122.44000244140625","photo_url":"http:\/\/photos1.meetupstatic.com\/photos\/member\/3\/3\/2\/member_1218818.jpeg","link":"http:\/\/www.meetup.com\/members\/3433358","state":"CA","country":"us","city":"San Francisco","visited":"Tue Jul 29 13:42:56 EDT 2008","id":"3433358","joined":"Tue Jun 10 16:54:45 EDT 2008","bio":"http:\/\/ruby.meetup.com\/77\/\r\n","name":"Amit","lat":"37.77000045776367"},{"zip":"60126","lon":"-87.94000244140625","photo_url":"","link":"http:\/\/www.meetup.com\/members\/8524816","state":"IL","country":"us","city":"Elmhurst","visited":"Thu Dec 18 10:09:38 EST 2008","id":"8524816","joined":"Thu Dec 18 10:09:38 EST 2008","bio":"","name":"Andre","lat":"41.88999938964844"},{"zip":"60615","lon":"-87.5999984741211","photo_url":"http:\/\/photos1.meetupstatic.com\/photos\/member\/a\/0\/a\/member_5138570.jpeg","link":"http:\/\/www.meetup.com\/members\/8330266","state":"IL","country":"us","city":"Chicago","visited":"Sat Nov 08 17:22:56 EST 2008","id":"8330266","joined":"Sat Nov 08 17:22:56 EST 2008","bio":"","name":"Andrew Cone","lat":"41.79999923706055"},{"zip":"60187","lon":"-88.11000061035156","photo_url":"http:\/\/photos1.meetupstatic.com\/photos\/member\/1\/2\/0\/7\/member_1156615.jpeg","link":"http:\/\/www.meetup.com\/members\/3279352","state":"IL","country":"us","city":"Wheaton","visited":"Fri Sep 14 10:49:25 EDT 2007","id":"3279352","joined":"Thu Nov 02 04:04:07 EST 2006","bio":"I'm learning Rails to develop an information management system for my employer, and I'm thinking of using Ruby for some of my personal projects too.  I'm self-taught and have mostly used Perl with a smattering of JavaScript, PHP, and VBA.","name":"Andy Culbertson","lat":"41.86000061035156"},{"zip":"60622","lon":"-87.66999816894531","photo_url":"http:\/\/photos1.meetupstatic.com\/photos\/member\/1\/2\/f\/8\/member_5584856.jpeg","link":"http:\/\/www.meetup.com\/members\/1807864","state":"IL","country":"us","city":"Chicago","visited":"Sun Jan 27 13:21:38 EST 2008","id":"1807864","joined":"Sat Jan 19 11:40:44 EST 2008","bio":"Hi, I'm a Java programmer by day\/Ruby programmer by night. My latest Ruby involvement is with an open-source project (Glimmer) that enables desktop application development (http:\/\/andymaleh.blogspot.com\/2007\/11\/sneak-peak-at-glimmer.html) C'ya soon.","name":"Andy Maleh","lat":"41.900001525878906"},{"zip":"60657","lon":"-87.6500015258789","photo_url":"http:\/\/photos1.meetupstatic.com\/photos\/member\/7\/8\/1\/member_2383921.jpeg","link":"http:\/\/www.meetup.com\/members\/4904499","state":"IL","country":"us","city":"Chicago","visited":"Sun Aug 03 21:18:10 EDT 2008","id":"4904499","joined":"Thu Jan 17 16:11:40 EST 2008","bio":"","name":"Angelos","lat":"41.939998626708984"},{"zip":"60622","lon":"-87.66999816894531","photo_url":"","link":"http:\/\/www.meetup.com\/members\/8869406","state":"IL","country":"us","city":"Chicago","visited":"Mon Oct 19 16:37:26 EDT 2009","id":"8869406","joined":"Mon Oct 19 16:37:26 EDT 2009","bio":"I'm an entrepreneur, founder of juntese.com - a social networking site in RoR. I love rails and I love ruby. And I love TDD.","name":"Anjali Shenoy","lat":"41.900001525878906"},{"zip":"60628","lon":"-87.62000274658203","photo_url":"","link":"http:\/\/www.meetup.com\/members\/4684345","state":"IL","country":"us","city":"Chicago","visited":"Mon Oct 08 11:16:48 EDT 2007","id":"4684345","joined":"Tue Jul 31 11:29:15 EDT 2007","bio":"","name":"Anthony","lat":"41.689998626708984"},{"zip":"60601","lon":"-87.62999725341797","photo_url":"","link":"http:\/\/www.meetup.com\/members\/6277182","state":"IL","country":"us","city":"Chicago","visited":"Tue Sep 01 17:35:59 EDT 2009","id":"6277182","joined":"Sun Jan 27 22:33:30 EST 2008","bio":"","name":"Anthony Garcia","lat":"41.88999938964844"},{"zip":"60615","lon":"-87.5999984741211","photo_url":"http:\/\/photos1.meetupstatic.com\/photos\/member\/2\/2\/8\/member_7044552.jpeg","link":"http:\/\/www.meetup.com\/members\/9597972","state":"IL","country":"us","city":"Chicago","visited":"Sat Jun 20 17:43:41 EDT 2009","id":"9597972","joined":"Sat Jun 20 16:38:17 EDT 2009","bio":"","name":"Anyi","lat":"41.79999923706055"},{"zip":"60165","lon":"-87.86000061035156","photo_url":"","link":"http:\/\/www.meetup.com\/members\/10111414","state":"IL","country":"us","city":"Stone Park","visited":"Wed Sep 23 17:23:38 EDT 2009","id":"10111414","joined":"Mon Aug 03 18:47:08 EDT 2009","bio":"","name":"Arthur Christoph","lat":"41.900001525878906"},{"zip":"60126","lon":"-87.94000244140625","photo_url":"","link":"http:\/\/www.meetup.com\/members\/7477311","state":"IL","country":"us","city":"Elmhurst","visited":"Fri Jun 20 10:58:18 EDT 2008","id":"7477311","joined":"Wed Jun 18 23:42:28 EDT 2008","bio":"","name":"Arun Sivashankaran","lat":"41.88999938964844"},{"zip":"meetup5","lon":"80.2699966430664","photo_url":"http:\/\/photos1.meetupstatic.com\/photos\/member\/1\/2\/3\/7\/member_4090663.jpeg","link":"http:\/\/www.meetup.com\/members\/7437328","state":"","country":"in","city":"Chennai","visited":"Wed Sep 24 13:31:58 EDT 2008","id":"7437328","joined":"Fri Jun 13 09:03:37 EDT 2008","bio":"","name":"Arunkumar","lat":"13.09000015258789"},{"zip":"60611","lon":"-87.62000274658203","photo_url":"http:\/\/photos1.meetupstatic.com\/photos\/member\/7\/9\/member_7314121.jpeg","link":"http:\/\/www.meetup.com\/members\/5022749","state":"IL","country":"us","city":"Chicago","visited":"Mon Aug 31 13:54:31 EDT 2009","id":"5022749","joined":"Mon May 12 10:31:00 EDT 2008","bio":"","name":"Avand Amiri","lat":"41.88999938964844"},{"zip":"60126","lon":"-87.94000244140625","photo_url":"","link":"http:\/\/www.meetup.com\/members\/7311859","state":"IL","country":"us","city":"Elmhurst","visited":"Sat Jun 07 11:44:58 EDT 2008","id":"7311859","joined":"Tue May 27 16:41:32 EDT 2008","bio":"","name":"Bassam El-Abid","lat":"41.88999938964844"},{"zip":"60606","lon":"-87.63999938964844","photo_url":"","link":"http:\/\/www.meetup.com\/members\/10115118","state":"IL","country":"us","city":"Chicago","visited":"Tue Aug 04 13:23:23 EDT 2009","id":"10115118","joined":"Tue Aug 04 09:28:31 EDT 2009","bio":"","name":"Ben Erickson","lat":"41.880001068115234"},{"zip":"60616","lon":"-87.62999725341797","photo_url":"","link":"http:\/\/www.meetup.com\/members\/8899931","state":"IL","country":"us","city":"Chicago","visited":"Sat May 16 11:52:27 EDT 2009","id":"8899931","joined":"Thu Feb 26 17:15:43 EST 2009","bio":"","name":"Ben Mills","lat":"41.84000015258789"},{"zip":"60657","lon":"-87.6500015258789","photo_url":"http:\/\/photos1.meetupstatic.com\/photos\/member\/f\/0\/f\/member_7203855.jpeg","link":"http:\/\/www.meetup.com\/members\/9363026","state":"IL","country":"us","city":"Chicago","visited":"Tue Jun 23 11:16:07 EDT 2009","id":"9363026","joined":"Thu Apr 16 00:08:56 EDT 2009","bio":"","name":"Benjamin Estes","lat":"41.939998626708984"},{"zip":"60614","lon":"-87.6500015258789","photo_url":"","link":"http:\/\/www.meetup.com\/members\/10156414","state":"IL","country":"us","city":"Chicago","visited":"Tue Sep 22 14:26:18 EDT 2009","id":"10156414","joined":"Mon Aug 10 11:12:22 EDT 2009","bio":"","name":"Bernerd Schaefer","lat":"41.91999816894531"},{"zip":"60540","lon":"-88.1500015258789","photo_url":"","link":"http:\/\/www.meetup.com\/members\/4195245","state":"IL","country":"us","city":"Naperville","visited":"Thu Jul 05 13:58:25 EDT 2007","id":"4195245","joined":"Mon May 14 16:47:36 EDT 2007","bio":"","name":"Betty Reynolds","lat":"41.77000045776367"},{"zip":"60156","lon":"-88.33000183105469","photo_url":"","link":"http:\/\/www.meetup.com\/members\/9635429","state":"IL","country":"us","city":"Lake in the Hills","visited":"Tue May 26 22:50:39 EDT 2009","id":"9635429","joined":"Tue May 26 22:50:39 EDT 2009","bio":"","name":"Bill Gloff","lat":"42.18000030517578"},{"zip":"60126","lon":"-87.94000244140625","photo_url":"","link":"http:\/\/www.meetup.com\/members\/9654285","state":"IL","country":"us","city":"Elmhurst","visited":"Fri May 29 15:33:58 EDT 2009","id":"9654285","joined":"Fri May 29 15:33:58 EDT 2009","bio":"","name":"blair christensen","lat":"41.88999938964844"},{"zip":"60614","lon":"-87.6500015258789","photo_url":"http:\/\/photos1.meetupstatic.com\/photos\/member\/1\/7\/2\/5\/member_4787925.jpeg","link":"http:\/\/www.meetup.com\/members\/6137613","state":"IL","country":"us","city":"Chicago","visited":"Tue Oct 20 15:24:17 EDT 2009","id":"6137613","joined":"Thu Jul 09 15:43:35 EDT 2009","bio":"","name":"Bob Brill","lat":"41.91999816894531"},{"zip":"60661","lon":"-87.63999938964844","photo_url":"http:\/\/photos1.meetupstatic.com\/photos\/member\/d\/7\/3\/member_7071443.jpeg","link":"http:\/\/www.meetup.com\/members\/8933907","state":"IL","country":"us","city":"Chicago","visited":"Sun Oct 25 13:58:19 EDT 2009","id":"8933907","joined":"Sun Aug 23 13:45:26 EDT 2009","bio":"","name":"Bob Korbus","lat":"41.880001068115234"},{"zip":"60025","lon":"-87.81999969482422","photo_url":"http:\/\/photos1.meetupstatic.com\/photos\/member\/7\/4\/4\/member_3409860.jpeg","link":"http:\/\/www.meetup.com\/members\/1475676","state":"IL","country":"us","city":"Glenview","visited":"Sat Aug 16 14:35:26 EDT 2008","id":"1475676","joined":"Sun Mar 04 17:44:21 EST 2007","bio":"","name":"Bobby","lat":"42.08000183105469"},{"zip":"60616","lon":"-87.62999725341797","photo_url":"http:\/\/photos1.meetupstatic.com\/photos\/member\/5\/d\/3\/member_6301491.jpeg","link":"http:\/\/www.meetup.com\/members\/5708026","state":"IL","country":"us","city":"Chicago","visited":"Fri Oct 23 14:54:21 EDT 2009","id":"5708026","joined":"Thu Apr 02 23:24:22 EDT 2009","bio":"Socializing with people, learning ruby, helping with interesting projects","name":"Bogdan Kanivets","lat":"41.84000015258789"},{"zip":"60554","lon":"-88.45999908447266","photo_url":"http:\/\/photos1.meetupstatic.com\/photos\/member\/7\/5\/3\/member_2743875.jpeg","link":"http:\/\/www.meetup.com\/members\/5456226","state":"IL","country":"us","city":"Sugar Grove","visited":"Mon Dec 10 19:40:38 EST 2007","id":"5456226","joined":"Sat Oct 27 14:17:04 EDT 2007","bio":"Been doing Ruby for a few years now and have several large RoR projects completed (jrank.org, publicsalary.com, modelformatter plugin).  Ruby just absolutely rules as a language (I kissed Java goodbye) - and I also love using it for web-dev in Rails!","name":"Brad Folkens","lat":"41.77000045776367"},{"zip":"60614","lon":"-87.6500015258789","photo_url":"http:\/\/photos1.meetupstatic.com\/photos\/member\/c\/8\/f\/member_369215.jpeg","link":"http:\/\/www.meetup.com\/members\/2167382","state":"IL","country":"us","city":"Chicago","visited":"Mon Jan 21 02:08:43 EST 2008","id":"2167382","joined":"Thu Jan 10 00:20:11 EST 2008","bio":"I've been Webdeveloper using Flash, PHP, Javascript and many other languages for nearly 6 years and dove into flex a couple months ago. Very interested in developing with flex! Excited to meet up with other tech like-minds. ","name":"brandon","lat":"41.91999816894531"},{"zip":"60611","lon":"-87.62000274658203","photo_url":"http:\/\/photos1.meetupstatic.com\/photos\/member\/d\/2\/4\/member_4827364.jpeg","link":"http:\/\/www.meetup.com\/members\/8096812","state":"IL","country":"us","city":"Chicago","visited":"Tue Oct 20 19:54:01 EDT 2009","id":"8096812","joined":"Tue May 12 10:53:37 EDT 2009","bio":"I'm in town for a few months on a project, and want to connect with local Rubyists.","name":"Brandon","lat":"41.88999938964844"},{"zip":"60626","lon":"-87.66999816894531","photo_url":"http:\/\/photos1.meetupstatic.com\/photos\/member\/4\/5\/0\/member_2617104.jpeg","link":"http:\/\/www.meetup.com\/members\/5270575","state":"IL","country":"us","city":"Chicago","visited":"Thu Sep 18 14:55:32 EDT 2008","id":"5270575","joined":"Thu Sep 18 14:55:32 EDT 2008","bio":"I'm in a research group and I use Rails for prototyping (and sometimes more...)","name":"Brandon Harvey","lat":"42.0099983215332"},{"zip":"60610","lon":"-87.63999938964844","photo_url":"http:\/\/photos1.meetupstatic.com\/photos\/member\/2\/f\/2\/member_6918754.jpeg","link":"http:\/\/www.meetup.com\/members\/9069210","state":"IL","country":"us","city":"Chicago","visited":"Tue Oct 06 11:31:58 EDT 2009","id":"9069210","joined":"Wed Jun 17 12:36:12 EDT 2009","bio":"","name":"Brandon Weiss","lat":"41.900001525878906"},{"zip":"60606","lon":"-87.63999938964844","photo_url":"http:\/\/photos1.meetupstatic.com\/photos\/member\/1\/4\/d\/5\/member_6431333.jpeg","link":"http:\/\/www.meetup.com\/members\/9397462","state":"IL","country":"us","city":"Chicago","visited":"Tue Jul 07 09:44:40 EDT 2009","id":"9397462","joined":"Tue Jul 07 09:44:40 EDT 2009","bio":"","name":"Brent Sordyl","lat":"41.880001068115234"},{"zip":"20037","lon":"-77.05000305175781","photo_url":"","link":"http:\/\/www.meetup.com\/members\/3104486","state":"DC","country":"us","city":"Washington","visited":"Sun Dec 16 12:59:16 EST 2007","id":"3104486","joined":"Fri Dec 14 10:27:42 EST 2007","bio":"","name":"Brian Chamberlain","lat":"38.900001525878906"},{"zip":"60004","lon":"-87.97000122070312","photo_url":"","link":"http:\/\/www.meetup.com\/members\/2429856","state":"IL","country":"us","city":"Arlington Heights","visited":"Thu Nov 13 09:22:37 EST 2008","id":"2429856","joined":"Thu Nov 13 09:22:37 EST 2008","bio":"","name":"Brian Eng","lat":"42.11000061035156"},{"zip":"60610","lon":"-87.63999938964844","photo_url":"","link":"http:\/\/www.meetup.com\/members\/6369819","state":"IL","country":"us","city":"Chicago","visited":"Tue Aug 18 17:30:30 EDT 2009","id":"6369819","joined":"Wed Feb 06 11:22:36 EST 2008","bio":"I'm very intrigued by ROR, so much so that I developed a similar framework for Visual Foxpro, called FoxTrails.\r\n\r\nI am interested in meeting other Rails developers and learning more about ROR.","name":"Brian Marquis","lat":"41.900001525878906"},{"zip":"60126","lon":"-87.94000244140625","photo_url":"http:\/\/photos1.meetupstatic.com\/photos\/member\/b\/b\/6\/member_3188998.jpeg","link":"http:\/\/www.meetup.com\/members\/6195284","state":"IL","country":"us","city":"Elmhurst","visited":"Mon May 12 16:13:17 EDT 2008","id":"6195284","joined":"Sat Jan 19 14:45:39 EST 2008","bio":"","name":"Brian Moschel","lat":"41.88999938964844"},{"zip":"60601","lon":"-87.62999725341797","photo_url":"http:\/\/photos1.meetupstatic.com\/photos\/member\/1\/1\/c\/b\/member_6688555.jpeg","link":"http:\/\/www.meetup.com\/members\/6061205","state":"IL","country":"us","city":"Chicago","visited":"Mon Dec 15 16:41:22 EST 2008","id":"6061205","joined":"Wed Mar 12 08:47:56 EDT 2008","bio":"","name":"Brian Moschel","lat":"41.88999938964844"},{"zip":"60148","lon":"-88.01000213623047","photo_url":"","link":"http:\/\/www.meetup.com\/members\/8212347","state":"IL","country":"us","city":"Lombard","visited":"Fri Sep 25 20:58:06 EDT 2009","id":"8212347","joined":"Thu Oct 16 23:54:19 EDT 2008","bio":"","name":"Bright","lat":"41.869998931884766"},{"zip":"60618","lon":"-87.69999694824219","photo_url":"","link":"http:\/\/www.meetup.com\/members\/2411896","state":"IL","country":"us","city":"Chicago","visited":"Thu Oct 22 18:01:37 EDT 2009","id":"2411896","joined":"Thu Oct 01 12:37:27 EDT 2009","bio":"","name":"Bruce Burdick","lat":"41.939998626708984"},{"zip":"53144","lon":"-87.87000274658203","photo_url":"","link":"http:\/\/www.meetup.com\/members\/7519976","state":"WI","country":"us","city":"Kenosha","visited":"Fri Jul 18 22:49:52 EDT 2008","id":"7519976","joined":"Wed Jun 25 13:56:32 EDT 2008","bio":"I'm a GIS Analyst who keeps dipping my toe into the ruby world for internal web apps, batch processing, and making little tools. I heard about the group and thought it might be fun to meet some others who are into ruby.","name":"Bryan Luman","lat":"42.650001525878906"},{"zip":"60606","lon":"-87.63999938964844","photo_url":"","link":"http:\/\/www.meetup.com\/members\/8406596","state":"IL","country":"us","city":"Chicago","visited":"Tue Sep 15 15:00:15 EDT 2009","id":"8406596","joined":"Sun Dec 28 15:27:03 EST 2008","bio":"","name":"Caleb Cornman","lat":"41.880001068115234"},{"zip":"60619","lon":"-87.61000061035156","photo_url":"","link":"http:\/\/www.meetup.com\/members\/5048486","state":"IL","country":"us","city":"Chicago","visited":"Fri Oct 16 21:26:44 EDT 2009","id":"5048486","joined":"Wed Sep 12 23:52:42 EDT 2007","bio":"","name":"Carl Jackson","lat":"41.75"},{"zip":"60504","lon":"-88.23999786376953","photo_url":"http:\/\/photos1.meetupstatic.com\/photos\/member\/1\/5\/d\/f\/member_1955599.jpeg","link":"http:\/\/www.meetup.com\/members\/3077721","state":"IL","country":"us","city":"Aurora","visited":"Sat Apr 14 14:19:19 EDT 2007","id":"3077721","joined":"Wed Aug 02 14:15:04 EDT 2006","bio":"","name":"Carmelyne","lat":"41.7599983215332"},{"zip":"60515","lon":"-88.0199966430664","photo_url":"","link":"http:\/\/www.meetup.com\/members\/10543130","state":"IL","country":"us","city":"Downers Grove","visited":"Thu Oct 01 22:43:55 EDT 2009","id":"10543130","joined":"Thu Oct 01 22:43:55 EDT 2009","bio":"just wanted to see what's going on in Ruby in chi-town.","name":"cat","lat":"41.810001373291016"},{"zip":"60073","lon":"-88.08999633789062","photo_url":"","link":"http:\/\/www.meetup.com\/members\/5808955","state":"IL","country":"us","city":"Round Lake","visited":"Mon Jun 30 15:26:08 EDT 2008","id":"5808955","joined":"Mon Jun 30 15:26:08 EDT 2008","bio":"","name":"cathy","lat":"42.349998474121094"},{"zip":"60601","lon":"-87.62999725341797","photo_url":"http:\/\/photos1.meetupstatic.com\/photos\/member\/1\/5\/1\/e\/member_3227406.jpeg","link":"http:\/\/www.meetup.com\/members\/2956298","state":"IL","country":"us","city":"Chicago","visited":"Sun Sep 20 23:09:45 EDT 2009","id":"2956298","joined":"Sun Aug 23 18:58:39 EDT 2009","bio":"","name":"Cathy","lat":"41.88999938964844"},{"zip":"60622","lon":"-87.66999816894531","photo_url":"","link":"http:\/\/www.meetup.com\/members\/8561731","state":"IL","country":"us","city":"Chicago","visited":"Sun Dec 28 21:22:52 EST 2008","id":"8561731","joined":"Sun Dec 28 21:22:52 EST 2008","bio":"","name":"Chad Hendry","lat":"41.900001525878906"},{"zip":"60657","lon":"-87.6500015258789","photo_url":"","link":"http:\/\/www.meetup.com\/members\/8138994","state":"IL","country":"us","city":"Chicago","visited":"Fri Oct 03 08:20:49 EDT 2008","id":"8138994","joined":"Fri Oct 03 08:20:49 EDT 2008","bio":"I'm technically an Information Risk and IT Security guy, but I write code when I think no one is looking","name":"Chandler Howell","lat":"41.939998626708984"},{"zip":"60601","lon":"-87.62999725341797","photo_url":"http:\/\/photos1.meetupstatic.com\/photos\/member\/d\/b\/0\/member_2943504.jpeg","link":"http:\/\/www.meetup.com\/members\/5659724","state":"IL","country":"us","city":"Chicago","visited":"Sun Dec 09 01:10:00 EST 2007","id":"5659724","joined":"Sun Dec 09 01:10:00 EST 2007","bio":"","name":"Chanese","lat":"41.88999938964844"},{"zip":"11211","lon":"-73.94999694824219","photo_url":"http:\/\/photos1.meetupstatic.com\/photos\/member\/a\/1\/f\/member_7808591.jpeg","link":"http:\/\/www.meetup.com\/members\/683087","state":"NY","country":"us","city":"Brooklyn","visited":"Tue Oct 06 00:52:15 EDT 2009","id":"683087","joined":"Fri Oct 02 20:14:35 EDT 2009","bio":"Love Ruby and startups","name":"Chirag Patel","lat":"40.709999084472656"},{"zip":"60126","lon":"-87.94000244140625","photo_url":"","link":"http:\/\/www.meetup.com\/members\/9749823","state":"IL","country":"us","city":"Elmhurst","visited":"Mon Aug 03 14:07:52 EDT 2009","id":"9749823","joined":"Fri Jun 12 17:44:20 EDT 2009","bio":"","name":"Chris Carter","lat":"41.88999938964844"},{"zip":"60613","lon":"-87.66000366210938","photo_url":"http:\/\/photos1.meetupstatic.com\/photos\/member\/7\/c\/6\/member_7441990.jpeg","link":"http:\/\/www.meetup.com\/members\/10221296","state":"IL","country":"us","city":"Chicago","visited":"Fri Aug 28 10:40:26 EDT 2009","id":"10221296","joined":"Wed Aug 19 12:02:20 EDT 2009","bio":"Just moved to Chicago for a job involving Ruby on Rails development and want to get involved with the local Ruby on Rails community","name":"Chris Hallendy","lat":"41.959999084472656"},{"zip":"60615","lon":"-87.5999984741211","photo_url":"","link":"http:\/\/www.meetup.com\/members\/2341455","state":"IL","country":"us","city":"Chicago","visited":"Mon Sep 08 14:11:52 EDT 2008","id":"2341455","joined":"Mon Sep 08 14:11:52 EDT 2008","bio":"","name":"Chris Jennings","lat":"41.79999923706055"},{"zip":"60614","lon":"-87.6500015258789","photo_url":"http:\/\/photos1.meetupstatic.com\/photos\/member\/1\/5\/1\/3\/member_7661395.jpeg","link":"http:\/\/www.meetup.com\/members\/7973972","state":"IL","country":"us","city":"Chicago","visited":"Tue Sep 15 23:11:11 EDT 2009","id":"7973972","joined":"Tue Sep 15 23:11:11 EDT 2009","bio":"","name":"Chris Kozak","lat":"41.91999816894531"},{"zip":"60625","lon":"-87.69999694824219","photo_url":"","link":"http:\/\/www.meetup.com\/members\/8489935","state":"IL","country":"us","city":"Chicago","visited":"Tue Aug 11 07:00:51 EDT 2009","id":"8489935","joined":"Tue Aug 11 07:00:51 EDT 2009","bio":"","name":"Chris McAvoy","lat":"41.970001220703125"},{"zip":"60126","lon":"-87.94000244140625","photo_url":"http:\/\/photos1.meetupstatic.com\/photos\/member\/6\/3\/d\/member_6937597.jpeg","link":"http:\/\/www.meetup.com\/members\/9812916","state":"IL","country":"us","city":"Elmhurst","visited":"Mon Aug 17 11:18:37 EDT 2009","id":"9812916","joined":"Mon Jun 22 12:29:31 EDT 2009","bio":"","name":"Chris Powers","lat":"41.88999938964844"},{"zip":"60626","lon":"-87.66999816894531","photo_url":"http:\/\/photos1.meetupstatic.com\/photos\/member\/c\/9\/1\/member_6957217.jpeg","link":"http:\/\/www.meetup.com\/members\/3014653","state":"IL","country":"us","city":"Chicago","visited":"Fri Oct 23 23:43:18 EDT 2009","id":"3014653","joined":"Mon Mar 03 19:44:52 EST 2008","bio":"Looking for people to pair with to sharpen my ruby skills. Interested? Twitter: @csepic","name":"Chris Sepic","lat":"42.0099983215332"},{"zip":"60047","lon":"-88.05999755859375","photo_url":"","link":"http:\/\/www.meetup.com\/members\/7151086","state":"IL","country":"us","city":"Lake Zurich","visited":"Tue Sep 22 14:10:36 EDT 2009","id":"7151086","joined":"Tue May 06 09:23:51 EDT 2008","bio":"","name":"Christian Billen","lat":"42.20000076293945"},{"zip":"60555","lon":"-88.18000030517578","photo_url":"","link":"http:\/\/www.meetup.com\/members\/687349","state":"IL","country":"us","city":"Warrenville","visited":"Tue Jan 13 10:17:12 EST 2009","id":"687349","joined":"Tue Oct 14 15:00:38 EDT 2008","bio":"","name":"Chuck Isdale","lat":"41.83000183105469"},{"zip":"60601","lon":"-87.62999725341797","photo_url":"http:\/\/photos1.meetupstatic.com\/photos\/member\/1\/d\/a\/member_1620474.jpeg","link":"http:\/\/www.meetup.com\/members\/2080041","state":"IL","country":"us","city":"Chicago","visited":"Sun Nov 09 16:58:34 EST 2008","id":"2080041","joined":"Fri Oct 19 10:52:02 EDT 2007","bio":"Hi, I'm a beginner on RubyonRails.  Just wanted to learn more about it.  Look forward to meeting everyone at the next event.","name":"Cindy","lat":"41.88999938964844"},{"zip":"19103","lon":"-75.19999694824219","photo_url":"","link":"http:\/\/www.meetup.com\/members\/7106176","state":"PA","country":"us","city":"Philadelphia","visited":"Mon Jul 13 19:08:53 EDT 2009","id":"7106176","joined":"Mon Jul 13 19:08:53 EDT 2009","bio":"","name":"Cody Ray","lat":"39.959999084472656"},{"zip":"60606","lon":"-87.63999938964844","photo_url":"","link":"http:\/\/www.meetup.com\/members\/10672569","state":"IL","country":"us","city":"Chicago","visited":"Wed Oct 21 16:17:33 EDT 2009","id":"10672569","joined":"Mon Oct 19 15:23:44 EDT 2009","bio":"I want to keep up on what's going on in the Chicago Ruby community.","name":"Colin Campbell","lat":"41.880001068115234"},{"zip":"60625","lon":"-87.69999694824219","photo_url":"","link":"http:\/\/www.meetup.com\/members\/2416738","state":"IL","country":"us","city":"Chicago","visited":"Mon Oct 05 14:44:21 EDT 2009","id":"2416738","joined":"Mon Aug 31 16:59:34 EDT 2009","bio":"","name":"Colin Harris","lat":"41.970001220703125"},{"zip":"60060","lon":"-88.05999755859375","photo_url":"http:\/\/photos1.meetupstatic.com\/photos\/member\/e\/5\/f\/member_7395679.jpeg","link":"http:\/\/www.meetup.com\/members\/8450442","state":"IL","country":"us","city":"Mundelein","visited":"Mon Aug 31 10:51:52 EDT 2009","id":"8450442","joined":"Sun Apr 26 14:51:30 EDT 2009","bio":"I'm an apprentice at 8th Light and excited to be living in an area with so many tech user groups!","name":"Colin Jones","lat":"42.27000045776367"},{"zip":"60640","lon":"-87.66999816894531","photo_url":"http:\/\/photos1.meetupstatic.com\/photos\/member\/4\/1\/4\/member_4981044.jpeg","link":"http:\/\/www.meetup.com\/members\/6290398","state":"IL","country":"us","city":"Chicago","visited":"Thu Oct 22 14:14:56 EDT 2009","id":"6290398","joined":"Tue Jan 29 04:45:17 EST 2008","bio":"","name":"Constantin Gavrilescu","lat":"41.970001220703125"},{"zip":"60402","lon":"-87.79000091552734","photo_url":"http:\/\/photos1.meetupstatic.com\/photos\/member\/1\/5\/5\/9\/member_3287465.jpeg","link":"http:\/\/www.meetup.com\/members\/6343000","state":"IL","country":"us","city":"Berwyn","visited":"Mon Sep 29 00:48:16 EDT 2008","id":"6343000","joined":"Sun Feb 03 17:36:35 EST 2008","bio":"","name":"Corey Ehmke","lat":"41.84000015258789"},{"zip":"44101","lon":"-81.66999816894531","photo_url":"http:\/\/photos1.meetupstatic.com\/photos\/member\/8\/e\/member_5622142.jpeg","link":"http:\/\/www.meetup.com\/members\/3294809","state":"OH","country":"us","city":"Cleveland","visited":"Tue Sep 01 18:45:16 EDT 2009","id":"3294809","joined":"Sat Jul 11 17:44:56 EDT 2009","bio":"I don't live in Chicago, but I swing through somewhat regularly.","name":"coreyhaines","lat":"41.4900016784668"},{"zip":"60647","lon":"-87.69999694824219","photo_url":"http:\/\/photos1.meetupstatic.com\/photos\/member\/1\/5\/8\/9\/member_7811513.jpeg","link":"http:\/\/www.meetup.com\/members\/10550375","state":"IL","country":"us","city":"Chicago","visited":"Thu Oct 22 10:43:22 EDT 2009","id":"10550375","joined":"Sat Oct 03 01:15:37 EDT 2009","bio":"Cause I got nothing but love for ruby.","name":"Cory Schires","lat":"41.91999816894531"},{"zip":"60606","lon":"-87.63999938964844","photo_url":"http:\/\/photos1.meetupstatic.com\/photos\/member\/1\/0\/d\/4\/member_7666308.jpeg","link":"http:\/\/www.meetup.com\/members\/10423364","state":"IL","country":"us","city":"Chicago","visited":"Mon Oct 05 13:18:29 EDT 2009","id":"10423364","joined":"Tue Sep 15 19:39:17 EDT 2009","bio":"Local Chicago Rails Developer (WFH) - looking to get engaged with other Rails Developers and share in what we've collectively learned!","name":"Cory Wilkerson","lat":"41.880001068115234"},{"zip":"60126","lon":"-87.94000244140625","photo_url":"","link":"http:\/\/www.meetup.com\/members\/6102438","state":"IL","country":"us","city":"Elmhurst","visited":"Fri Apr 18 11:19:31 EDT 2008","id":"6102438","joined":"Thu Jan 10 15:19:24 EST 2008","bio":"","name":"Courtney ","lat":"41.88999938964844"},{"zip":"60601","lon":"-87.62999725341797","photo_url":"http:\/\/photos1.meetupstatic.com\/photos\/member\/5\/3\/7\/member_4747335.jpeg","link":"http:\/\/www.meetup.com\/members\/914513","state":"IL","country":"us","city":"Chicago","visited":"Sun Sep 14 20:27:57 EDT 2008","id":"914513","joined":"Sun Sep 14 20:27:57 EDT 2008","bio":"","name":"Craig T. Hancock","lat":"41.88999938964844"},{"zip":"60657","lon":"-87.6500015258789","photo_url":"http:\/\/photos1.meetupstatic.com\/photos\/member\/a\/2\/b\/member_2756603.jpeg","link":"http:\/\/www.meetup.com\/members\/5346531","state":"IL","country":"us","city":"Chicago","visited":"Mon Nov 26 22:33:09 EST 2007","id":"5346531","joined":"Tue Nov 13 17:29:14 EST 2007","bio":"Hi! I've recently become interested in Ruby and am in the middle of reading \"Ruby by Example.\" My last job was as a Flash developer and I want to expand my capabilities.","name":"dafthuman","lat":"41.939998626708984"},{"zip":"60622","lon":"-87.66999816894531","photo_url":"http:\/\/photos1.meetupstatic.com\/photos\/member\/6\/9\/d\/member_1849693.jpeg","link":"http:\/\/www.meetup.com\/members\/3881594","state":"IL","country":"us","city":"Chicago","visited":"Fri Jul 24 17:47:54 EDT 2009","id":"3881594","joined":"Fri Jul 24 15:53:12 EDT 2009","bio":"I'm an entrepreneur and recently launched an online community that was built in Ruby.  Since I'm not a developer, I'd like to learn more so I can improve my communication with members of the tech community.","name":"Dale Miller","lat":"41.900001525878906"},{"zip":"60126","lon":"-87.94000244140625","photo_url":"http:\/\/photos1.meetupstatic.com\/photos\/member\/e\/7\/9\/member_5337705.jpeg","link":"http:\/\/www.meetup.com\/members\/8481218","state":"IL","country":"us","city":"Elmhurst","visited":"Tue Dec 30 15:27:53 EST 2008","id":"8481218","joined":"Mon Dec 08 18:19:04 EST 2008","bio":"I'm a technical recruiter with TEKsystems. I am here to build relationships with developers who are part of one of the most industry changing technologies ever. My goal is to network to build long term relationships with quality ruby developers.","name":"Dan ","lat":"41.88999938964844"},{"zip":"78717","lon":"-97.73999786376953","photo_url":"","link":"http:\/\/www.meetup.com\/members\/2731163","state":"TX","country":"us","city":"Austin","visited":"Sat May 02 14:42:04 EDT 2009","id":"2731163","joined":"Fri Nov 16 22:33:12 EST 2007","bio":"Time to connect to the ruby\/rails community","name":"Dan","lat":"30.5"},{"zip":"60604","lon":"-87.62999725341797","photo_url":"","link":"http:\/\/www.meetup.com\/members\/8690416","state":"IL","country":"us","city":"Chicago","visited":"Thu Jul 09 17:28:20 EDT 2009","id":"8690416","joined":"Thu Jul 09 17:28:20 EDT 2009","bio":"","name":"Dan Hodos","lat":"41.880001068115234"},{"zip":"60090","lon":"-87.93000030517578","photo_url":"http:\/\/photos1.meetupstatic.com\/photos\/member\/1\/3\/7\/5\/member_1786981.jpeg","link":"http:\/\/www.meetup.com\/members\/4126984","state":"IL","country":"us","city":"Wheeling","visited":"Sun Oct 25 16:27:36 EDT 2009","id":"4126984","joined":"Tue Jul 28 09:51:06 EDT 2009","bio":"","name":"Dan Manges","lat":"42.130001068115234"},{"zip":"49250","lon":"-84.62999725341797","photo_url":"http:\/\/photos1.meetupstatic.com\/photos\/member\/8\/5\/b\/member_2810139.jpeg","link":"http:\/\/www.meetup.com\/members\/5305299","state":"MI","country":"us","city":"Jonesville","visited":"Mon Jul 21 00:17:06 EDT 2008","id":"5305299","joined":"Mon Oct 15 11:07:29 EDT 2007","bio":"","name":"Dan Parker","lat":"42.0099983215332"},{"zip":"60126","lon":"-87.94000244140625","photo_url":"http:\/\/photos1.meetupstatic.com\/photos\/member\/1\/1\/5\/2\/member_3700434.jpeg","link":"http:\/\/www.meetup.com\/members\/6960232","state":"IL","country":"us","city":"Elmhurst","visited":"Fri Dec 05 11:37:46 EST 2008","id":"6960232","joined":"Fri Apr 11 12:05:58 EDT 2008","bio":"Good Morning, \r\n\r\nI need some IT professional help in regards to a search for some junior and senior level web developers. I am a technical recruiter but I am not here to give a huge spiel about the position I have open. I just wanted to reach out an","name":"Dan Richter","lat":"41.88999938964844"},{"zip":"60126","lon":"-87.94000244140625","photo_url":"","link":"http:\/\/www.meetup.com\/members\/5553320","state":"IL","country":"us","city":"Elmhurst","visited":"Wed Jan 09 22:20:11 EST 2008","id":"5553320","joined":"Wed Nov 07 07:49:45 EST 2007","bio":"","name":"Dan Sundt","lat":"41.88999938964844"},{"zip":"60606","lon":"-87.63999938964844","photo_url":"","link":"http:\/\/www.meetup.com\/members\/10441105","state":"IL","country":"us","city":"Chicago","visited":"Tue Oct 20 16:45:43 EDT 2009","id":"10441105","joined":"Thu Sep 17 20:13:21 EDT 2009","bio":"To meet ruby users and learn more about programming and ruby in particular.","name":"Daniel Peters","lat":"41.880001068115234"},{"zip":"60126","lon":"-87.94000244140625","photo_url":"","link":"http:\/\/www.meetup.com\/members\/6101300","state":"IL","country":"us","city":"Elmhurst","visited":"Fri Jan 18 11:27:57 EST 2008","id":"6101300","joined":"Thu Jan 10 14:12:43 EST 2008","bio":"","name":"dave","lat":"41.88999938964844"},{"zip":"60126","lon":"-87.94000244140625","photo_url":"http:\/\/photos1.meetupstatic.com\/photos\/member\/8\/d\/9\/member_6896265.jpeg","link":"http:\/\/www.meetup.com\/members\/9778645","state":"IL","country":"us","city":"Elmhurst","visited":"Fri Jun 19 17:22:03 EDT 2009","id":"9778645","joined":"Wed Jun 17 02:32:54 EDT 2009","bio":"","name":"dave","lat":"41.88999938964844"},{"zip":"60174","lon":"-88.30000305175781","photo_url":"http:\/\/photos1.meetupstatic.com\/photos\/member\/1\/f\/2\/member_6630498.jpeg","link":"http:\/\/www.meetup.com\/members\/2738753","state":"IL","country":"us","city":"Saint Charles","visited":"Fri May 15 17:03:06 EDT 2009","id":"2738753","joined":"Fri May 15 17:03:06 EDT 2009","bio":"","name":"Dave Bost","lat":"41.91999816894531"},{"zip":"60625","lon":"-87.69999694824219","photo_url":"http:\/\/photos1.meetupstatic.com\/photos\/member\/d\/8\/5\/member_4083461.jpeg","link":"http:\/\/www.meetup.com\/members\/6422012","state":"IL","country":"us","city":"Chicago","visited":"Mon Feb 11 19:48:17 EST 2008","id":"6422012","joined":"Mon Feb 11 19:48:17 EST 2008","bio":"","name":"Dave Chakrabarti","lat":"41.970001220703125"},{"zip":"60657","lon":"-87.6500015258789","photo_url":"","link":"http:\/\/www.meetup.com\/members\/10414273","state":"IL","country":"us","city":"Chicago","visited":"Mon Sep 14 17:22:29 EDT 2009","id":"10414273","joined":"Mon Sep 14 17:22:29 EDT 2009","bio":"Local IT recruiter in Chicago looking to learn more about technology.","name":"Dave Coughlin","lat":"41.939998626708984"},{"zip":"60622","lon":"-87.66999816894531","photo_url":"http:\/\/photos1.meetupstatic.com\/photos\/member\/8\/9\/f\/member_6266207.jpeg","link":"http:\/\/www.meetup.com\/members\/7700562","state":"IL","country":"us","city":"Chicago","visited":"Wed Oct 21 09:00:38 EDT 2009","id":"7700562","joined":"Wed Apr 01 10:41:52 EDT 2009","bio":"","name":"Dave Giunta","lat":"41.900001525878906"},{"zip":"60187","lon":"-88.11000061035156","photo_url":"http:\/\/photos1.meetupstatic.com\/photos\/member\/1\/f\/1\/member_3570497.jpeg","link":"http:\/\/www.meetup.com\/members\/2399790","state":"IL","country":"us","city":"Wheaton","visited":"Wed Oct 14 09:29:51 EDT 2009","id":"2399790","joined":"Sun Oct 29 20:31:11 EST 2006","bio":"I'm glad to see another Chicago Ruby group forming up.  And closer to where I live.","name":"Dave Hoover","lat":"41.86000061035156"},{"zip":"60611","lon":"-87.62000274658203","photo_url":"","link":"http:\/\/www.meetup.com\/members\/7065284","state":"IL","country":"us","city":"Chicago","visited":"Sun May 18 11:10:44 EDT 2008","id":"7065284","joined":"Thu Apr 24 11:23:25 EDT 2008","bio":"","name":"Dave Shenk","lat":"41.88999938964844"},{"zip":"60618","lon":"-87.69999694824219","photo_url":"","link":"http:\/\/www.meetup.com\/members\/9796100","state":"IL","country":"us","city":"Chicago","visited":"Fri Jul 17 14:20:03 EDT 2009","id":"9796100","joined":"Fri Jun 19 15:06:04 EDT 2009","bio":"Interested in learning more about RoR, and meeting some folks that use it.","name":"David Fitch","lat":"41.939998626708984"},{"zip":"60601","lon":"-87.62999725341797","photo_url":"http:\/\/photos1.meetupstatic.com\/photos\/member\/1\/6\/4\/3\/member_155699.jpeg","link":"http:\/\/www.meetup.com\/members\/462692","state":"IL","country":"us","city":"Chicago","visited":"Thu Sep 06 22:50:56 EDT 2007","id":"462692","joined":"Wed Aug 08 12:03:53 EDT 2007","bio":"","name":"David Flint","lat":"41.88999938964844"},{"zip":"60640","lon":"-87.66999816894531","photo_url":"http:\/\/photos1.meetupstatic.com\/photos\/member\/9\/8\/a\/member_5846442.jpeg","link":"http:\/\/www.meetup.com\/members\/8872572","state":"IL","country":"us","city":"Chicago","visited":"Sat Oct 03 18:30:27 EDT 2009","id":"8872572","joined":"Fri Oct 02 18:04:15 EDT 2009","bio":"I've started programming cobal and rpg in 1974 on a Univac 9200 with 8k and have coded in most of the languages written since.. Ruby is the most forward-thinking language I've worked in, a real pleasure.","name":"David Grooms","lat":"41.970001220703125"},{"zip":"60126","lon":"-87.94000244140625","photo_url":"","link":"http:\/\/www.meetup.com\/members\/8235937","state":"IL","country":"us","city":"Elmhurst","visited":"Tue Oct 21 16:12:46 EDT 2008","id":"8235937","joined":"Tue Oct 21 16:12:46 EDT 2008","bio":"Interested in how RoR can enable simple, light SaaS offerings.","name":"David Henderson","lat":"41.88999938964844"},{"zip":"60302","lon":"-87.79000091552734","photo_url":"http:\/\/photos1.meetupstatic.com\/photos\/member\/b\/7\/5\/member_2162933.jpeg","link":"http:\/\/www.meetup.com\/members\/4585440","state":"IL","country":"us","city":"Oak Park","visited":"Sat Jul 04 13:40:22 EDT 2009","id":"4585440","joined":"Thu Jan 31 23:45:12 EST 2008","bio":"By day, I'm a Java programmer for a large financial institution pushing for adoption of RoR and Flex. By night, well, I just get as much sleep as I can before my first child is born in late May. ","name":"David L Kinney","lat":"41.900001525878906"},{"zip":"60601","lon":"-87.62999725341797","photo_url":"http:\/\/photos1.meetupstatic.com\/photos\/member\/c\/0\/7\/member_69079.jpeg","link":"http:\/\/www.meetup.com\/members\/765135","state":"IL","country":"us","city":"Chicago","visited":"Fri Dec 14 01:17:50 EST 2007","id":"765135","joined":"Fri May 25 21:24:07 EDT 2007","bio":"\r\n     I'm actually more interested in Groovy, but the two languages are so similar that this may be the most relevant meetup.","name":"David Lee","lat":"41.88999938964844"},{"zip":"60601","lon":"-87.62999725341797","photo_url":"","link":"http:\/\/www.meetup.com\/members\/751135","state":"IL","country":"us","city":"Chicago","visited":"Thu Aug 06 13:20:47 EDT 2009","id":"751135","joined":"Tue Jul 15 02:36:45 EDT 2008","bio":"","name":"David Muruli","lat":"41.88999938964844"},{"zip":"60126","lon":"-87.94000244140625","photo_url":"","link":"http:\/\/www.meetup.com\/members\/7434922","state":"IL","country":"us","city":"Elmhurst","visited":"Sat Apr 04 12:04:08 EDT 2009","id":"7434922","joined":"Thu Jun 12 20:14:39 EDT 2008","bio":"","name":"David Pham","lat":"41.88999938964844"},{"zip":"60130","lon":"-87.81999969482422","photo_url":"","link":"http:\/\/www.meetup.com\/members\/4020093","state":"IL","country":"us","city":"Forest Park","visited":"Thu Sep 13 17:45:08 EDT 2007","id":"4020093","joined":"Tue Apr 10 01:39:21 EDT 2007","bio":"Very new to Ruby, but a career developer in many languages.","name":"David Wooden","lat":"41.869998931884766"},{"zip":"60604","lon":"-87.62999725341797","photo_url":"","link":"http:\/\/www.meetup.com\/members\/9456207","state":"IL","country":"us","city":"Chicago","visited":"Tue Oct 20 22:07:03 EDT 2009","id":"9456207","joined":"Tue Oct 06 12:56:18 EDT 2009","bio":"","name":"David Yang","lat":"41.880001068115234"},{"zip":"60126","lon":"-87.94000244140625","photo_url":"","link":"http:\/\/www.meetup.com\/members\/7223220","state":"IL","country":"us","city":"Elmhurst","visited":"Thu May 15 17:50:58 EDT 2008","id":"7223220","joined":"Thu May 15 17:50:58 EDT 2008","bio":"","name":"dburns","lat":"41.88999938964844"},{"zip":"60126","lon":"-87.94000244140625","photo_url":"","link":"http:\/\/www.meetup.com\/members\/6497690","state":"IL","country":"us","city":"Elmhurst","visited":"Sat Apr 05 13:20:18 EDT 2008","id":"6497690","joined":"Tue Feb 19 18:22:58 EST 2008","bio":"","name":"Dean Pannell","lat":"41.88999938964844"},{"zip":"60654","lon":"-87.63999938964844","photo_url":"http:\/\/photos1.meetupstatic.com\/photos\/member\/6\/3\/e\/member_5947598.jpeg","link":"http:\/\/www.meetup.com\/members\/8958946","state":"IL","country":"us","city":"Chicago","visited":"Tue Sep 29 12:04:46 EDT 2009","id":"8958946","joined":"Wed Jul 22 18:05:12 EDT 2009","bio":"","name":"Dean Wampler","lat":"41.88999938964844"},{"zip":"60654","lon":"-87.63999938964844","photo_url":"http:\/\/photos1.meetupstatic.com\/photos\/member\/c\/7\/e\/member_7659198.jpeg","link":"http:\/\/www.meetup.com\/members\/9359770","state":"IL","country":"us","city":"Chicago","visited":"Sat Oct 17 13:10:47 EDT 2009","id":"9359770","joined":"Mon Apr 27 22:46:08 EDT 2009","bio":"","name":"Denny Abraham","lat":"41.88999938964844"},{"zip":"60611","lon":"-87.62000274658203","photo_url":"http:\/\/photos1.meetupstatic.com\/photos\/member\/d\/d\/3\/member_3897539.jpeg","link":"http:\/\/www.meetup.com\/members\/7205750","state":"IL","country":"us","city":"Chicago","visited":"Fri May 08 15:23:37 EDT 2009","id":"7205750","joined":"Fri May 08 15:23:37 EDT 2009","bio":"","name":"Derek Beckmann","lat":"41.88999938964844"},{"zip":"48301","lon":"-83.27999877929688","photo_url":"","link":"http:\/\/www.meetup.com\/members\/10125684","state":"MI","country":"us","city":"Bloomfield Hills","visited":"Tue Aug 11 16:59:36 EDT 2009","id":"10125684","joined":"Wed Aug 05 16:03:33 EDT 2009","bio":"","name":"Derek Croft","lat":"42.540000915527344"},{"zip":"60660","lon":"-87.66000366210938","photo_url":"http:\/\/photos1.meetupstatic.com\/photos\/member\/8\/4\/a\/member_5822122.jpeg","link":"http:\/\/www.meetup.com\/members\/8093025","state":"IL","country":"us","city":"Chicago","visited":"Sat Feb 21 15:16:03 EST 2009","id":"8093025","joined":"Wed Sep 24 19:09:04 EDT 2008","bio":"I am a professional Ruby\/Rails developer in Chicago, and do all kinds of things with Ruby for fun.","name":"Derek Reeve","lat":"41.9900016784668"},{"zip":"94117","lon":"-122.44000244140625","photo_url":"","link":"http:\/\/www.meetup.com\/members\/7411128","state":"CA","country":"us","city":"San Francisco","visited":"Tue Jun 10 17:33:12 EDT 2008","id":"7411128","joined":"Tue Jun 10 17:33:12 EDT 2008","bio":"\"Hi,I am Ruby on Rails Developer and looking for some interesting projects to work on.\"\r\n","name":"Deval Gadhia","lat":"37.77000045776367"},{"zip":"60606","lon":"-87.63999938964844","photo_url":"","link":"http:\/\/www.meetup.com\/members\/10116725","state":"IL","country":"us","city":"Chicago","visited":"Tue Aug 04 13:28:23 EDT 2009","id":"10116725","joined":"Tue Aug 04 13:28:23 EDT 2009","bio":"","name":"dimple ","lat":"41.880001068115234"},{"zip":"60606","lon":"-87.63999938964844","photo_url":"http:\/\/photos1.meetupstatic.com\/photos\/member\/1\/1\/b\/2\/member_7666530.jpeg","link":"http:\/\/www.meetup.com\/members\/10423606","state":"IL","country":"us","city":"Chicago","visited":"Thu Oct 01 08:37:19 EDT 2009","id":"10423606","joined":"Tue Sep 15 20:09:58 EDT 2009","bio":"Wish to strengthen my Ruby skills, and connect with Chicago-area Rubyists.","name":"Dmitri Christodoulakis","lat":"41.880001068115234"},{"zip":"60084","lon":"-88.13999938964844","photo_url":"","link":"http:\/\/www.meetup.com\/members\/10414638","state":"IL","country":"us","city":"Wauconda","visited":"Tue Oct 20 19:23:56 EDT 2009","id":"10414638","joined":"Mon Sep 14 18:13:58 EDT 2009","bio":"","name":"Dmitriy Khomitskiy","lat":"42.2599983215332"},{"zip":"60192","lon":"-88.11000061035156","photo_url":"","link":"http:\/\/www.meetup.com\/members\/10368067","state":"IL","country":"us","city":"Hoffman Estates","visited":"Wed Sep 09 11:14:56 EDT 2009","id":"10368067","joined":"Wed Sep 09 11:14:56 EDT 2009","bio":"","name":"Don Hill","lat":"42.06999969482422"},{"zip":"94111","lon":"-122.4000015258789","photo_url":"http:\/\/photos1.meetupstatic.com\/photos\/member\/2\/e\/0\/member_4884736.jpeg","link":"http:\/\/www.meetup.com\/members\/8142097","state":"CA","country":"us","city":"San Francisco","visited":"Thu Aug 27 14:18:45 EDT 2009","id":"8142097","joined":"Wed Aug 12 12:41:24 EDT 2009","bio":"","name":"Donald James","lat":"37.79999923706055"},{"zip":"46385","lon":"-87.05999755859375","photo_url":"","link":"http:\/\/www.meetup.com\/members\/1367783","state":"IN","country":"us","city":"Valparaiso","visited":"Sun Dec 30 20:03:00 EST 2007","id":"1367783","joined":"Sun Dec 30 20:03:00 EST 2007","bio":"","name":"dononyx","lat":"41.470001220703125"},{"zip":"60126","lon":"-87.94000244140625","photo_url":"http:\/\/photos1.meetupstatic.com\/photos\/member\/7\/8\/c\/member_3637932.jpeg","link":"http:\/\/www.meetup.com\/members\/6103482","state":"IL","country":"us","city":"Elmhurst","visited":"Sat Aug 01 11:19:39 EDT 2009","id":"6103482","joined":"Thu Jan 10 16:43:04 EST 2008","bio":"","name":"Doug Evenhouse","lat":"41.88999938964844"},{"zip":"60606","lon":"-87.63999938964844","photo_url":"http:\/\/photos1.meetupstatic.com\/photos\/member\/3\/8\/b\/member_3996907.jpeg","link":"http:\/\/www.meetup.com\/members\/7330231","state":"IL","country":"us","city":"Chicago","visited":"Wed Oct 14 22:53:29 EDT 2009","id":"7330231","joined":"Thu Jun 18 09:51:12 EDT 2009","bio":"Agile and Ruby go hand-in-hand.  I look forward to meeting everyone!","name":"Drew Jemilo","lat":"41.880001068115234"},{"zip":"60610","lon":"-87.63999938964844","photo_url":"http:\/\/photos1.meetupstatic.com\/photos\/member\/7\/2\/a\/member_3565834.jpeg","link":"http:\/\/www.meetup.com\/members\/6774930","state":"IL","country":"us","city":"Chicago","visited":"Tue Oct 20 15:12:42 EDT 2009","id":"6774930","joined":"Wed Aug 20 02:33:43 EDT 2008","bio":"","name":"Drew Olson","lat":"41.900001525878906"},{"zip":"60618","lon":"-87.69999694824219","photo_url":"http:\/\/photos1.meetupstatic.com\/photos\/member\/b\/7\/0\/member_5150928.jpeg","link":"http:\/\/www.meetup.com\/members\/8338677","state":"IL","country":"us","city":"Chicago","visited":"Tue Oct 20 16:28:33 EDT 2009","id":"8338677","joined":"Mon Aug 10 12:38:04 EDT 2009","bio":"I'm a Chirb-erino.  Also, Ray Hightower rules.  Oh, and I'm a Rails developer in Chicago sooooo...","name":"Dustin Anderson","lat":"41.939998626708984"},{"zip":"60606","lon":"-87.63999938964844","photo_url":"","link":"http:\/\/www.meetup.com\/members\/9495248","state":"IL","country":"us","city":"Chicago","visited":"Tue Aug 04 16:00:03 EDT 2009","id":"9495248","joined":"Thu Jul 23 17:00:55 EDT 2009","bio":"I am a technical recruiter looking to network and learn more about technology.  I always enjoy meeting with and talking to new people!","name":"Dustin Carper","lat":"41.880001068115234"},{"zip":"60657","lon":"-87.6500015258789","photo_url":"http:\/\/photos1.meetupstatic.com\/photos\/member\/1\/5\/7\/5\/member_6011493.jpeg","link":"http:\/\/www.meetup.com\/members\/7093777","state":"IL","country":"us","city":"Chicago","visited":"Fri Feb 20 10:52:29 EST 2009","id":"7093777","joined":"Mon Apr 28 09:44:32 EDT 2008","bio":"","name":"Eduardo Scoz","lat":"41.939998626708984"},{"zip":"60707","lon":"-87.81999969482422","photo_url":"http:\/\/photos1.meetupstatic.com\/photos\/member\/1\/2\/6\/b\/member_5644715.jpeg","link":"http:\/\/www.meetup.com\/members\/8708892","state":"IL","country":"us","city":"Elmwood Park","visited":"Thu Oct 15 23:09:01 EDT 2009","id":"8708892","joined":"Mon Jan 19 22:53:14 EST 2009","bio":"I'm an old-line programmer who's recently switched to developing in Ruby on Rails. I also fairly recently returned to my childhood home in Chicago.","name":"Edwin Meyer","lat":"41.91999816894531"},{"zip":"60143","lon":"-88.0199966430664","photo_url":"","link":"http:\/\/www.meetup.com\/members\/6525709","state":"IL","country":"us","city":"Itasca","visited":"Fri Feb 22 13:50:24 EST 2008","id":"6525709","joined":"Fri Feb 22 13:50:24 EST 2008","bio":"","name":"Elaine ","lat":"41.970001220703125"},{"zip":"60126","lon":"-87.94000244140625","photo_url":"","link":"http:\/\/www.meetup.com\/members\/6989997","state":"IL","country":"us","city":"Elmhurst","visited":"Mon Apr 14 17:12:11 EDT 2008","id":"6989997","joined":"Mon Apr 14 17:12:11 EDT 2008","bio":"","name":"Eleanor Taylor","lat":"41.88999938964844"},{"zip":"98101","lon":"-122.33000183105469","photo_url":"","link":"http:\/\/www.meetup.com\/members\/7845591","state":"WA","country":"us","city":"Seattle","visited":"Thu Aug 14 13:19:19 EDT 2008","id":"7845591","joined":"Thu Aug 14 13:19:19 EDT 2008","bio":"","name":"Eleni","lat":"47.61000061035156"},{"zip":"60010","lon":"-88.13999938964844","photo_url":"http:\/\/photos1.meetupstatic.com\/photos\/member\/b\/c\/member_5550188.jpeg","link":"http:\/\/www.meetup.com\/members\/8637165","state":"IL","country":"us","city":"Barrington","visited":"Fri Sep 04 11:32:33 EDT 2009","id":"8637165","joined":"Wed Jul 15 13:45:36 EDT 2009","bio":"","name":"Elliott Garms","lat":"42.189998626708984"},{"zip":"60126","lon":"-87.94000244140625","photo_url":"","link":"http:\/\/www.meetup.com\/members\/9256501","state":"IL","country":"us","city":"Elmhurst","visited":"Wed Apr 01 18:01:00 EDT 2009","id":"9256501","joined":"Wed Apr 01 18:01:00 EDT 2009","bio":"","name":"Emily","lat":"41.88999938964844"},{"zip":"60614","lon":"-87.6500015258789","photo_url":"","link":"http:\/\/www.meetup.com\/members\/3248089","state":"IL","country":"us","city":"Chicago","visited":"Sun Oct 04 23:47:42 EDT 2009","id":"3248089","joined":"Sun Oct 04 23:47:42 EDT 2009","bio":"","name":"Emily","lat":"41.91999816894531"},{"zip":"60201","lon":"-87.69999694824219","photo_url":"http:\/\/photos1.meetupstatic.com\/photos\/member\/8\/e\/member_840142.jpeg","link":"http:\/\/www.meetup.com\/members\/2958340","state":"IL","country":"us","city":"Evanston","visited":"Tue Sep 22 21:33:04 EDT 2009","id":"2958340","joined":"Sun Jul 23 13:43:42 EDT 2006","bio":"","name":"Emmanuel Sambo","lat":"42.060001373291016"},{"zip":"60606","lon":"-87.63999938964844","photo_url":"","link":"http:\/\/www.meetup.com\/members\/10762282","state":"IL","country":"us","city":"Chicago","visited":"Sun Nov 01 00:19:55 EDT 2009","id":"10762282","joined":"Sun Nov 01 00:19:55 EDT 2009","bio":"I want to learn about Ruby. I've never used it. I see that a lot of people who join this group are newbies, so I'd like to network with both experts and people with whom I can grow.","name":"Ena Jenkins","lat":"41.880001068115234"},{"zip":"60126","lon":"-87.94000244140625","photo_url":"","link":"http:\/\/www.meetup.com\/members\/6565983","state":"IL","country":"us","city":"Elmhurst","visited":"Mon Aug 31 14:59:19 EDT 2009","id":"6565983","joined":"Tue Feb 26 17:15:22 EST 2008","bio":"","name":"Eran","lat":"41.88999938964844"},{"zip":"46526","lon":"-85.83999633789062","photo_url":"http:\/\/photos1.meetupstatic.com\/photos\/member\/1\/0\/f\/3\/member_3478339.jpeg","link":"http:\/\/www.meetup.com\/members\/6612850","state":"IN","country":"us","city":"Goshen","visited":"Mon Aug 31 10:37:38 EDT 2009","id":"6612850","joined":"Thu Aug 27 17:38:01 EDT 2009","bio":"Interested in rails development and the rails community.","name":"Eric","lat":"41.59000015258789"},{"zip":"60081","lon":"-88.2300033569336","photo_url":"http:\/\/photos1.meetupstatic.com\/photos\/member\/1\/6\/9\/f\/member_7847791.jpeg","link":"http:\/\/www.meetup.com\/members\/9726877","state":"IL","country":"us","city":"Spring Grove","visited":"Wed Oct 07 12:29:17 EDT 2009","id":"9726877","joined":"Tue Jun 09 14:33:37 EDT 2009","bio":"I am an absolute BEGINNER with Ruby and programming in general.  I'm looking forward to gathering as much knowledge and advice from others in the field as possible.","name":"Eric Mumbower","lat":"42.439998626708984"},{"zip":"60555","lon":"-88.18000030517578","photo_url":"","link":"http:\/\/www.meetup.com\/members\/8553899","state":"IL","country":"us","city":"Warrenville","visited":"Mon Jul 13 18:21:29 EDT 2009","id":"8553899","joined":"Fri Jan 30 12:52:05 EST 2009","bio":"","name":"Eric Schwartz","lat":"41.83000183105469"},{"zip":"60126","lon":"-87.94000244140625","photo_url":"","link":"http:\/\/www.meetup.com\/members\/7279393","state":"IL","country":"us","city":"Elmhurst","visited":"Mon Oct 06 10:28:06 EDT 2008","id":"7279393","joined":"Fri May 23 10:05:31 EDT 2008","bio":"","name":"Eric Smith","lat":"41.88999938964844"},{"zip":"48197","lon":"-83.62000274658203","photo_url":"http:\/\/photos1.meetupstatic.com\/photos\/member\/b\/6\/a\/member_3650922.jpeg","link":"http:\/\/www.meetup.com\/members\/2229466","state":"MI","country":"us","city":"Ypsilanti","visited":"Tue Oct 06 16:55:20 EDT 2009","id":"2229466","joined":"Sat Apr 05 18:34:08 EDT 2008","bio":"Hi, I'm a web designer and developer with a few projects in the hopper.\r\n\r\nI just moved to Chicago and am looking to meet some fellow Rubyists.","name":"Erik Peterson","lat":"42.22999954223633"},{"zip":"60610","lon":"-87.63999938964844","photo_url":"","link":"http:\/\/www.meetup.com\/members\/9558634","state":"IL","country":"us","city":"Chicago","visited":"Tue Oct 13 10:55:02 EDT 2009","id":"9558634","joined":"Thu May 14 16:56:30 EDT 2009","bio":"Interested.","name":"Esmeralda Garcia","lat":"41.900001525878906"},{"zip":"60610","lon":"-87.63999938964844","photo_url":"http:\/\/photos1.meetupstatic.com\/photos\/member\/e\/e\/a\/member_2739818.jpeg","link":"http:\/\/www.meetup.com\/members\/4265033","state":"IL","country":"us","city":"Chicago","visited":"Sun Apr 06 13:16:43 EDT 2008","id":"4265033","joined":"Wed Sep 12 17:37:44 EDT 2007","bio":"","name":"eswiderski","lat":"41.900001525878906"},{"zip":"60606","lon":"-87.63999938964844","photo_url":"","link":"http:\/\/www.meetup.com\/members\/10559330","state":"IL","country":"us","city":"Chicago","visited":"Fri Oct 09 13:30:37 EDT 2009","id":"10559330","joined":"Sun Oct 04 16:18:30 EDT 2009","bio":"","name":"Ethan Gunderson","lat":"41.880001068115234"},{"zip":"60606","lon":"-87.63999938964844","photo_url":"","link":"http:\/\/www.meetup.com\/members\/10062015","state":"IL","country":"us","city":"Chicago","visited":"Wed Jul 29 12:06:07 EDT 2009","id":"10062015","joined":"Mon Jul 27 11:45:52 EDT 2009","bio":"I am a Ruby, 37signals, and Chicago enthusiast","name":"Fahim","lat":"41.880001068115234"},{"zip":"60101","lon":"-88.0","photo_url":"http:\/\/photos1.meetupstatic.com\/photos\/member\/1\/3\/0\/f\/member_6154879.jpeg","link":"http:\/\/www.meetup.com\/members\/2337889","state":"IL","country":"us","city":"Addison","visited":"Sat Oct 03 12:09:55 EDT 2009","id":"2337889","joined":"Thu Mar 19 17:23:29 EDT 2009","bio":"","name":"Fawad Halim","lat":"41.93000030517578"},{"zip":"60532","lon":"-88.08000183105469","photo_url":"http:\/\/photos1.meetupstatic.com\/photos\/member\/2\/a\/4\/member_6816676.jpeg","link":"http:\/\/www.meetup.com\/members\/9713374","state":"IL","country":"us","city":"Lisle","visited":"Tue Oct 20 22:40:35 EDT 2009","id":"9713374","joined":"Sun Jun 07 17:46:55 EDT 2009","bio":"I am new to greater Chicago (just moved from Lansing, MI) and I am interested in learning more about ruby, rails, web dev, agile dev and the people interested in the same.","name":"Frank Tuma","lat":"41.790000915527344"},{"zip":"60090","lon":"-87.93000030517578","photo_url":"http:\/\/photos1.meetupstatic.com\/photos\/member\/6\/6\/3\/member_1639635.jpeg","link":"http:\/\/www.meetup.com\/members\/3957612","state":"IL","country":"us","city":"Wheeling","visited":"Thu Jun 18 12:06:56 EDT 2009","id":"3957612","joined":"Mon Sep 22 10:15:17 EDT 2008","bio":"","name":"Fred","lat":"42.130001068115234"},{"zip":"60102","lon":"-88.31999969482422","photo_url":"","link":"http:\/\/www.meetup.com\/members\/5889798","state":"IL","country":"us","city":"Algonquin","visited":"Sat Jan 12 11:17:38 EST 2008","id":"5889798","joined":"Sun Dec 16 14:58:18 EST 2007","bio":"","name":"Gabriel","lat":"42.16999816894531"},{"zip":"60302","lon":"-87.79000091552734","photo_url":"","link":"http:\/\/www.meetup.com\/members\/9564930","state":"IL","country":"us","city":"Oak Park","visited":"Wed Oct 21 13:44:47 EDT 2009","id":"9564930","joined":"Fri May 15 16:12:16 EDT 2009","bio":"My (probably unique) background: CS Degree -> inner-city teaching -> corporate training -> back to CS through RoR on my own myself Since 09\/08. Joining to get involved in the RoR community, and better learn that which has made me love CS again.","name":"Gabriel Saravia","lat":"41.900001525878906"},{"zip":"60452","lon":"-87.76000213623047","photo_url":"","link":"http:\/\/www.meetup.com\/members\/9802330","state":"IL","country":"us","city":"Oak Forest","visited":"Tue Sep 22 21:53:07 EDT 2009","id":"9802330","joined":"Sat Jun 20 16:47:18 EDT 2009","bio":"","name":"Gabriella Gergely","lat":"41.61000061035156"},{"zip":"60606","lon":"-87.63999938964844","photo_url":"","link":"http:\/\/www.meetup.com\/members\/10680480","state":"IL","country":"us","city":"Chicago","visited":"Tue Oct 20 11:04:21 EDT 2009","id":"10680480","joined":"Tue Oct 20 11:04:21 EDT 2009","bio":"","name":"Gain","lat":"41.880001068115234"},{"zip":"60603","lon":"-87.62999725341797","photo_url":"http:\/\/photos1.meetupstatic.com\/photos\/member\/f\/c\/0\/member_5866032.jpeg","link":"http:\/\/www.meetup.com\/members\/7664490","state":"IL","country":"us","city":"Chicago","visited":"Mon Jul 06 20:44:30 EDT 2009","id":"7664490","joined":"Thu Jul 17 23:33:24 EDT 2008","bio":"","name":"Gary","lat":"41.880001068115234"},{"zip":"60601","lon":"-87.62999725341797","photo_url":"","link":"http:\/\/www.meetup.com\/members\/8194755","state":"IL","country":"us","city":"Chicago","visited":"Tue Aug 18 18:01:16 EDT 2009","id":"8194755","joined":"Mon Oct 13 20:36:53 EDT 2008","bio":"I have been very interested in learning the fast aglie way of developing web applications","name":"Gaurav Gaglani","lat":"41.88999938964844"},{"zip":"60126","lon":"-87.94000244140625","photo_url":"","link":"http:\/\/www.meetup.com\/members\/5549548","state":"IL","country":"us","city":"Elmhurst","visited":"Fri May 16 11:37:18 EDT 2008","id":"5549548","joined":"Tue Nov 06 20:44:03 EST 2007","bio":"","name":"Gavin","lat":"41.88999938964844"},{"zip":"60605","lon":"-87.62999725341797","photo_url":"http:\/\/photos1.meetupstatic.com\/photos\/member\/1\/0\/3\/5\/member_2260149.jpeg","link":"http:\/\/www.meetup.com\/members\/4571878","state":"IL","country":"us","city":"Chicago","visited":"Wed Sep 02 05:13:46 EDT 2009","id":"4571878","joined":"Wed Sep 02 05:13:46 EDT 2009","bio":"","name":"George","lat":"41.869998931884766"},{"zip":"60626","lon":"-87.66999816894531","photo_url":"http:\/\/photos1.meetupstatic.com\/photos\/member\/9\/1\/d\/member_7550333.jpeg","link":"http:\/\/www.meetup.com\/members\/2930148","state":"IL","country":"us","city":"Chicago","visited":"Fri Oct 30 16:09:30 EDT 2009","id":"2930148","joined":"Thu Jun 18 18:38:51 EDT 2009","bio":"","name":"Ginny Hendry","lat":"42.0099983215332"},{"zip":"60544","lon":"-88.19999694824219","photo_url":"","link":"http:\/\/www.meetup.com\/members\/3872281","state":"IL","country":"us","city":"Plainfield","visited":"Sat Nov 15 15:06:56 EST 2008","id":"3872281","joined":"Sat Nov 15 02:20:51 EST 2008","bio":"","name":"GK","lat":"41.619998931884766"},{"zip":"60601","lon":"-87.62999725341797","photo_url":"http:\/\/photos1.meetupstatic.com\/photos\/member\/a\/1\/1\/member_5906577.jpeg","link":"http:\/\/www.meetup.com\/members\/3870900","state":"IL","country":"us","city":"Chicago","visited":"Sat Mar 21 12:37:22 EDT 2009","id":"3870900","joined":"Wed Apr 30 22:54:16 EDT 2008","bio":"","name":"GK","lat":"41.88999938964844"},{"zip":"meetup1","lon":"21.469999313354492","photo_url":"http:\/\/photos1.meetupstatic.com\/photos\/member\/1\/2\/d\/2\/member_4114818.jpeg","link":"http:\/\/www.meetup.com\/members\/7465418","state":"","country":"mk","city":"Skopje","visited":"Sat Aug 02 11:22:57 EDT 2008","id":"7465418","joined":"Tue Jun 17 11:34:40 EDT 2008","bio":"Hello everybody,\r\nI'm happy to find this group!\r\nRuby Power :-)","name":"Goran Savovski","lat":"42.0"},{"zip":"60124","lon":"-88.30999755859375","photo_url":"http:\/\/photos1.meetupstatic.com\/photos\/member\/1\/7\/2\/member_5394370.jpeg","link":"http:\/\/www.meetup.com\/members\/8522550","state":"IL","country":"us","city":"Elgin","visited":"Fri Jan 16 13:47:17 EST 2009","id":"8522550","joined":"Wed Dec 17 18:37:06 EST 2008","bio":"","name":"Gordon Muirhead","lat":"42.040000915527344"},{"zip":"60606","lon":"-87.63999938964844","photo_url":"","link":"http:\/\/www.meetup.com\/members\/8522241","state":"IL","country":"us","city":"Chicago","visited":"Fri Dec 19 18:21:56 EST 2008","id":"8522241","joined":"Wed Dec 17 17:21:30 EST 2008","bio":"I'm a Unix\/Linux, OS X enthusiast.  My development background is primarily in Java\/J2EE.  I'm hoping to learn more about Ruby, Rails and the local development community.","name":"Grant Andres","lat":"41.880001068115234"},{"zip":"60610","lon":"-87.63999938964844","photo_url":"","link":"http:\/\/www.meetup.com\/members\/3531019","state":"IL","country":"us","city":"Chicago","visited":"Tue Sep 22 15:02:34 EDT 2009","id":"3531019","joined":"Sun Dec 24 01:02:03 EST 2006","bio":"Hey everybody,  I am new to Rails.  Attending a Pragmatic seminar in Mpls on Jan 10th.  Looking to get to know developers in Chicago.  I am currently starting a web based business after running one in NY for the last 4 years.","name":"Greg Sonbuchner","lat":"41.900001525878906"},{"zip":"60126","lon":"-87.94000244140625","photo_url":"","link":"http:\/\/www.meetup.com\/members\/5639430","state":"IL","country":"us","city":"Elmhurst","visited":"Fri Nov 16 11:16:00 EST 2007","id":"5639430","joined":"Fri Nov 16 11:16:00 EST 2007","bio":"","name":"Greg Willis","lat":"41.88999938964844"},{"zip":"60126","lon":"-87.94000244140625","photo_url":"","link":"http:\/\/www.meetup.com\/members\/9417598","state":"IL","country":"us","city":"Elmhurst","visited":"Thu Apr 23 13:04:13 EDT 2009","id":"9417598","joined":"Thu Apr 23 13:04:13 EDT 2009","bio":"","name":"gregory","lat":"41.88999938964844"},{"zip":"60304","lon":"-87.79000091552734","photo_url":"http:\/\/photos1.meetupstatic.com\/photos\/member\/1\/6\/0\/7\/member_5321639.jpeg","link":"http:\/\/www.meetup.com\/members\/3384092","state":"IL","country":"us","city":"Oak Park","visited":"Sat Dec 06 11:22:25 EST 2008","id":"3384092","joined":"Tue Nov 07 09:44:50 EST 2006","bio":"No longer new to Ruby, a few production sites under my belt ... thought the vast majority of my professional life is still spent in PHP.","name":"Hank","lat":"41.869998931884766"},{"zip":"60302","lon":"-87.79000091552734","photo_url":"http:\/\/photos1.meetupstatic.com\/photos\/member\/8\/c\/1\/member_4514241.jpeg","link":"http:\/\/www.meetup.com\/members\/7844553","state":"IL","country":"us","city":"Oak Park","visited":"Mon Aug 18 14:24:26 EDT 2008","id":"7844553","joined":"Thu Aug 14 14:59:58 EDT 2008","bio":"I know very little about open source software, to be honest, and I'm trying to find out more.","name":"Heidi Miller","lat":"41.900001525878906"},{"zip":"60641","lon":"-87.75","photo_url":"http:\/\/photos1.meetupstatic.com\/photos\/member\/a\/6\/6\/member_7616662.jpeg","link":"http:\/\/www.meetup.com\/members\/6356469","state":"IL","country":"us","city":"Chicago","visited":"Mon Apr 14 10:50:48 EDT 2008","id":"6356469","joined":"Mon Apr 14 10:50:48 EDT 2008","bio":"","name":"Helmut","lat":"41.939998626708984"},{"zip":"60543","lon":"-88.31999969482422","photo_url":"http:\/\/photos1.meetupstatic.com\/photos\/member\/d\/4\/member_5754212.jpeg","link":"http:\/\/www.meetup.com\/members\/8797961","state":"IL","country":"us","city":"Oswego","visited":"Thu Jul 23 23:19:41 EDT 2009","id":"8797961","joined":"Sun Feb 01 15:31:06 EST 2009","bio":"Been wanting to learn Ruby for a while. Taking the plunge now :)","name":"Hersh Ajgaonkar","lat":"41.66999816894531"},{"zip":"60645","lon":"-87.70999908447266","photo_url":"","link":"http:\/\/www.meetup.com\/members\/9441992","state":"IL","country":"us","city":"Chicago","visited":"Thu Oct 08 21:18:01 EDT 2009","id":"9441992","joined":"Sat Sep 26 17:35:48 EDT 2009","bio":"","name":"Hugh Devlin","lat":"42.0099983215332"},{"zip":"60612","lon":"-87.69000244140625","photo_url":"http:\/\/photos1.meetupstatic.com\/photos\/member\/9\/d\/f\/member_4796527.jpeg","link":"http:\/\/www.meetup.com\/members\/6775774","state":"IL","country":"us","city":"Chicago","visited":"Wed Sep 23 10:27:56 EDT 2009","id":"6775774","joined":"Thu Mar 20 14:23:35 EDT 2008","bio":"I am a Linux\/OS X enthusiast and freelance web designer looking to learn more about Ruby on Rails.","name":"Ian Swope","lat":"41.880001068115234"},{"zip":"60126","lon":"-87.94000244140625","photo_url":"","link":"http:\/\/www.meetup.com\/members\/6675441","state":"IL","country":"us","city":"Elmhurst","visited":"Fri Apr 18 13:49:59 EDT 2008","id":"6675441","joined":"Sun Mar 09 18:50:16 EDT 2008","bio":"","name":"Igor Stoyanov","lat":"41.88999938964844"},{"zip":"60606","lon":"-87.63999938964844","photo_url":"","link":"http:\/\/www.meetup.com\/members\/10319782","state":"IL","country":"us","city":"Chicago","visited":"Sun Sep 06 22:08:15 EDT 2009","id":"10319782","joined":"Tue Sep 01 18:45:30 EDT 2009","bio":"I'm in Chicago and I like Ruby.","name":"J. B. Rainsberger","lat":"41.880001068115234"},{"zip":"60462","lon":"-87.8499984741211","photo_url":"","link":"http:\/\/www.meetup.com\/members\/9802320","state":"IL","country":"us","city":"Orland Park","visited":"Mon Aug 31 17:43:55 EDT 2009","id":"9802320","joined":"Sat Jun 20 16:44:35 EDT 2009","bio":"","name":"Jack Kordas","lat":"41.619998931884766"},{"zip":"60626","lon":"-87.66999816894531","photo_url":"http:\/\/photos1.meetupstatic.com\/photos\/member\/1\/3\/2\/e\/member_6196910.jpeg","link":"http:\/\/www.meetup.com\/members\/9193150","state":"IL","country":"us","city":"Chicago","visited":"Mon Sep 21 11:44:51 EDT 2009","id":"9193150","joined":"Mon Sep 21 11:44:51 EDT 2009","bio":"","name":"Jake Lumetta","lat":"42.0099983215332"},{"zip":"60606","lon":"-87.63999938964844","photo_url":"","link":"http:\/\/www.meetup.com\/members\/9910523","state":"IL","country":"us","city":"Chicago","visited":"Tue Oct 20 15:18:57 EDT 2009","id":"9910523","joined":"Tue Jul 07 12:46:09 EDT 2009","bio":"","name":"Jake Schmitz","lat":"41.880001068115234"},{"zip":"60626","lon":"-87.66999816894531","photo_url":"http:\/\/photos1.meetupstatic.com\/photos\/member\/5\/1\/a\/member_7321306.jpeg","link":"http:\/\/www.meetup.com\/members\/9910684","state":"IL","country":"us","city":"Chicago","visited":"Wed Sep 02 09:40:38 EDT 2009","id":"9910684","joined":"Tue Jul 07 13:09:59 EDT 2009","bio":"","name":"Jake Scruggs","lat":"42.0099983215332"},{"zip":"60618","lon":"-87.69999694824219","photo_url":"http:\/\/photos1.meetupstatic.com\/photos\/member\/c\/9\/7\/member_4755223.jpeg","link":"http:\/\/www.meetup.com\/members\/8041546","state":"IL","country":"us","city":"Chicago","visited":"Mon Sep 15 18:45:51 EDT 2008","id":"8041546","joined":"Mon Sep 15 18:45:51 EDT 2008","bio":"","name":"Jakub","lat":"41.939998626708984"},{"zip":"60632","lon":"-87.70999908447266","photo_url":"","link":"http:\/\/www.meetup.com\/members\/2275036","state":"IL","country":"us","city":"Chicago","visited":"Fri May 30 22:57:01 EDT 2008","id":"2275036","joined":"Mon May 05 01:26:29 EDT 2008","bio":"","name":"James Galvin","lat":"41.810001373291016"},{"zip":"60606","lon":"-87.63999938964844","photo_url":"","link":"http:\/\/www.meetup.com\/members\/6189196","state":"IL","country":"us","city":"Chicago","visited":"Sat Jan 19 08:11:28 EST 2008","id":"6189196","joined":"Sat Jan 19 08:11:28 EST 2008","bio":"","name":"James Hornick","lat":"41.880001068115234"},{"zip":"60060","lon":"-88.05999755859375","photo_url":"","link":"http:\/\/www.meetup.com\/members\/8642986","state":"IL","country":"us","city":"Mundelein","visited":"Sat Jan 10 13:00:17 EST 2009","id":"8642986","joined":"Sat Jan 10 13:00:17 EST 2009","bio":"I've been involved in several RoR apps and ruby projects at work and home. I want to get involved in the local ruby development community to learn, network, and share my experiences.","name":"James Ravn","lat":"42.27000045776367"},{"zip":"60126","lon":"-87.94000244140625","photo_url":"","link":"http:\/\/www.meetup.com\/members\/7121493","state":"IL","country":"us","city":"Elmhurst","visited":"Tue Jun 17 08:48:38 EDT 2008","id":"7121493","joined":"Thu May 01 22:12:15 EDT 2008","bio":"","name":"James Wylder","lat":"41.88999938964844"},{"zip":"60605","lon":"-87.62999725341797","photo_url":"","link":"http:\/\/www.meetup.com\/members\/3244703","state":"IL","country":"us","city":"Chicago","visited":"Wed Dec 12 23:10:24 EST 2007","id":"3244703","joined":"Tue Oct 10 01:42:07 EDT 2006","bio":"","name":"Jason","lat":"41.869998931884766"},{"zip":"60657","lon":"-87.6500015258789","photo_url":"http:\/\/photos1.meetupstatic.com\/photos\/member\/4\/8\/1\/member_3703153.jpeg","link":"http:\/\/www.meetup.com\/members\/5557594","state":"IL","country":"us","city":"Chicago","visited":"Tue Feb 24 14:19:10 EST 2009","id":"5557594","joined":"Mon Feb 23 13:00:11 EST 2009","bio":"","name":"Jason","lat":"41.939998626708984"},{"zip":"60193","lon":"-88.08999633789062","photo_url":"http:\/\/photos1.meetupstatic.com\/photos\/member\/c\/9\/0\/member_3591216.jpeg","link":"http:\/\/www.meetup.com\/members\/5853454","state":"IL","country":"us","city":"Schaumburg","visited":"Mon Jun 22 12:59:26 EDT 2009","id":"5853454","joined":"Sun Oct 05 21:28:31 EDT 2008","bio":"","name":"Jason","lat":"42.0099983215332"},{"zip":"60601","lon":"-87.62999725341797","photo_url":"","link":"http:\/\/www.meetup.com\/members\/5893166","state":"IL","country":"us","city":"Chicago","visited":"Thu Sep 03 14:57:40 EDT 2009","id":"5893166","joined":"Sun Dec 21 16:11:32 EST 2008","bio":"","name":"Jason","lat":"41.88999938964844"},{"zip":"60622","lon":"-87.66999816894531","photo_url":"","link":"http:\/\/www.meetup.com\/members\/6268550","state":"IL","country":"us","city":"Chicago","visited":"Mon Oct 19 14:07:54 EDT 2009","id":"6268550","joined":"Mon Oct 19 14:07:54 EDT 2009","bio":"","name":"Jason","lat":"41.900001525878906"},{"zip":"60304","lon":"-87.79000091552734","photo_url":"http:\/\/photos1.meetupstatic.com\/photos\/member\/5\/8\/0\/member_4783408.jpeg","link":"http:\/\/www.meetup.com\/members\/2923727","state":"IL","country":"us","city":"Oak Park","visited":"Wed Sep 30 11:53:43 EDT 2009","id":"2923727","joined":"Mon Aug 17 11:22:01 EDT 2009","bio":"Would like to meet other dynamic language fans in Chicago.","name":"Jason Huggins","lat":"41.869998931884766"}],"meta":{"lon":"","count":200,"link":"http:\/\/api.meetup.com\/members\/","next":"http:\/\/api.meetup.com\/members\/?group_id=288361&key=124e4e2e1a483f3d14571f77260341f&order=name&_unicode=True&resource=%2Fmembers.json%2F&format=json&offset=1&page=200","total_count":526,"url":"http:\/\/api.meetup.com\/members\/?group_id=288361&key=124e4e2e1a483f3d14571f77260341f&order=name&_unicode=True&resource=%2Fmembers.json%2F&format=json&offset=0&page=200","id":"","title":"Meetup Members","updated":"2009-11-01 00:54:36 EDT","description":"API method for accessing members of Meetup Groups","method":"Members","lat":""}}
